" Tow: M-10-001   RV Sarmiento de Gamboa"
" Date: 04/05/2021"
" Temperature Probe #  5203    Conductivity Probe #  3333"
" Pressure Probe #  155"
" Flow Meter Calibration  4 (m/count)  "
"124.553148"
"$GPGGA,131516.573,4438.87535,N,01136.23216,W,1,09,"
"##MN-00 00 88 0000 02002 3776 606474 847713 213"
"124.55316"
"$GPGGA,131520.573,4438.87504,N,01136.23409,W,1,09,"
"##MN-00 00 87 0000 02003 3776 612577 847597 213"
"124.553171"
"$GPGGA,131521.573,4438.87507,N,01136.23469,W,1,09,"
"##MN-00 00 86 0000 02003 3776 612691 848147 213"
"124.553183"
"$GPGGA,131522.573,4438.87513,N,01136.23530,W,1,09,"
"##MN-00 00 86 0000 02004 3776 612646 847593 213"
"124.553194"
"$GPGGA,131523.573,4438.87511,N,01136.23585,W,1,09,"
"##MN-00 00 86 0000 02000 3776 612603 848734 213"
"124.553206"
"$GPGGA,131524.573,4438.87503,N,01136.23631,W,1,09,"
"##MN-00 00 86 0000 02002 3776 612578 848664 213"
"124.553218"
"$GPGGA,131525.573,4438.87495,N,01136.23672,W,1,09,"
"##MN-00 00 87 0000 02002 3777 612508 847937 213"
"124.553229"
"$GPGGA,131526.573,4438.87489,N,01136.23717,W,1,09,"
"##MN-00 00 87 0000 02002 3777 612449 848424 213"
"124.553241"
"$GPGGA,131527.573,4438.87483,N,01136.23768,W,1,09,"
"##MN-00 00 86 0000 02001 3777 612400 848702 213"
"124.553252"
"$GPGGA,131528.573,4438.87475,N,01136.23829,W,1,09,"
"##MN-00 00 86 0000 02001 3777 612383 848469 213"
"124.553275"
"$GPGGA,131529.573,4438.87464,N,01136.23891,W,1,09,"
"##MN-00 00 87 0000 02003 3777 612303 846932 213"
"124.553287"
"$GPGGA,131530.573,4438.87456,N,01136.23948,W,1,09,"
"##MN-00 00 86 0000 02001 3777 612276 848735 213"
"124.553299"
"$GPGGA,131532.573,4438.87464,N,01136.24052,W,1,09,"
"##MN-00 00 86 0000 02001 3777 612148 847870 213"
"124.55331"
"$GPGGA,131533.573,4438.87471,N,01136.24103,W,1,09,"
"##MN-00 00 86 0000 02004 3778 612027 848149 213"
"124.553322"
"$GPGGA,131534.573,4438.87472,N,01136.24152,W,1,08,"
"##MN-00 00 87 0000 02004 3778 612079 847871 213"
"124.553333"
"$GPGGA,131535.573,4438.87465,N,01136.24204,W,1,08,"
"##MN-00 00 86 0000 02001 3778 612168 848978 213"
"124.553345"
"$GPGGA,131536.573,4438.87452,N,01136.24261,W,1,09,"
"##MN-00 00 86 0000 02004 3778 612107 847938 213"
"124.553356"
"$GPGGA,131537.573,4438.87441,N,01136.24325,W,1,09,"
"##MN-00 00 86 0000 02003 3779 612201 847595 213"
"124.553368"
"$GPGGA,131538.573,4438.87438,N,01136.24391,W,1,09,"
"##MN-00 00 87 0000 02003 3779 612205 848425 213"
"124.55338"
"$GPGGA,131539.573,4438.87439,N,01136.24451,W,1,09,"
"##MN-00 00 87 0000 02002 3779 612087 847871 213"
"124.553391"
"$GPGGA,131540.573,4438.87440,N,01136.24502,W,1,09,"
"##MN-00 00 86 0000 02004 3779 611783 848702 213"
"124.553403"
"$GPGGA,131541.573,4438.87441,N,01136.24545,W,1,09,"
"##MN-00 00 86 0000 02004 3779 611625 847407 213"
"124.553414"
"$GPGGA,131542.573,4438.87441,N,01136.24583,W,1,09,"
"##MN-00 00 86 0000 02001 3779 611691 848697 213"
"124.553426"
"$GPGGA,131543.573,4438.87439,N,01136.24625,W,1,09,"
"##MN-00 00 88 0000 02001 3779 611802 847597 213"
"124.553438"
"$GPGGA,131544.573,4438.87435,N,01136.24679,W,1,09,"
"##MN-00 00 88 0000 02003 3780 612170 848147 213"
"124.553449"
"$GPGGA,131545.573,4438.87431,N,01136.24744,W,1,09,"
"##MN-00 00 86 0000 02002 3780 612394 847041 213"
"124.553461"
"$GPGGA,131546.573,4438.87428,N,01136.24813,W,1,09,"
"##MN-00 00 85 0000 02005 3779 612376 848204 213"
"124.553472"
"$GPGGA,131547.573,4438.87424,N,01136.24880,W,1,09,"
"##MN-00 00 86 0000 02005 3780 612259 847319 213"
"124.553484"
"$GPGGA,131548.573,4438.87422,N,01136.24940,W,1,09,"
"##MN-00 00 87 0000 02005 3780 612175 848701 213"
"124.553495"
"$GPGGA,131549.573,4438.87422,N,01136.24992,W,1,09,"
"##MN-00 00 87 0000 02004 3780 612092 848701 213"
"124.553507"
"$GPGGA,131550.573,4438.87421,N,01136.25036,W,1,08,"
"##MN-00 00 86 0000 02004 3781 611966 847318 213"
"124.553519"
"$GPGGA,131551.574,4438.87422,N,01136.25079,W,1,08,"
"##MN-00 00 86 0000 02004 3781 612026 847672 213"
"124.55353"
"$GPGGA,131552.574,4438.87420,N,01136.25127,W,1,08,"
"##MN-00 00 87 0000 02003 3781 612392 846763 213"
"124.553553"
"$GPGGA,131553.574,4438.87416,N,01136.25181,W,1,08,"
"##MN-00 00 87 0000 02003 3781 612687 848151 213"
"124.553565"
"$GPGGA,131554.574,4438.87416,N,01136.25242,W,1,08,"
"##MN-00 00 87 0000 02004 3781 613059 848426 213"
"124.553576"
"$GPGGA,131556.574,4438.87416,N,01136.25368,W,1,09,"
"##MN-00 00 86 0000 02004 3781 613101 847407 213"
"124.553588"
"$GPGGA,131557.574,4438.87411,N,01136.25428,W,1,08,"
"##MN-00 00 86 0000 02005 3781 612983 848148 213"
"124.5536"
"$GPGGA,131558.574,4438.87407,N,01136.25484,W,1,08,"
"##MN-00 00 86 0000 02005 3782 613132 847041 213"
"124.553611"
"$GPGGA,131559.574,4438.87405,N,01136.25537,W,1,08,"
"##MN-00 00 87 0000 02001 3782 613259 847595 213"
"124.553623"
"$GPGGA,131600.574,4438.87407,N,01136.25590,W,1,08,"
"##MN-00 00 87 0000 02001 3782 613286 848425 213"
"124.553634"
"$GPGGA,131601.574,4438.87411,N,01136.25646,W,1,09,"
"##MN-00 00 87 0000 02004 3782 613226 848469 213"
"124.553646"
"$GPGGA,131602.574,4438.87417,N,01136.25702,W,1,09,"
"##MN-00 00 86 0000 02004 3782 613371 847595 213"
"124.553657"
"$GPGGA,131603.574,4438.87416,N,01136.25757,W,1,09,"
"##MN-00 00 86 0000 02003 3782 613425 847595 213"
"124.553669"
"$GPGGA,131604.574,4438.87409,N,01136.25813,W,1,09,"
"##MN-00 00 86 0000 02004 3782 613341 849253 213"
"124.553681"
"$GPGGA,131605.574,4438.87402,N,01136.25875,W,1,09,"
"##MN-00 00 87 0000 02003 3783 613276 846765 213"
"124.553692"
"$GPGGA,131606.574,4438.87397,N,01136.25943,W,1,09,"
"##MN-00 00 87 0000 02004 3783 613231 848202 213"
"124.553704"
"$GPGGA,131607.574,4438.87396,N,01136.26014,W,1,09,"
"##MN-00 00 87 0000 02003 3783 613150 847871 213"
"124.553715"
"$GPGGA,131608.574,4438.87399,N,01136.26079,W,1,09,"
"##MN-00 00 86 0000 02004 3783 613222 848977 213"
"124.553727"
"$GPGGA,131609.574,4438.87404,N,01136.26132,W,1,08,"
"##MN-00 00 85 0000 02004 3783 613160 848149 213"
"124.553738"
"$GPGGA,131610.574,4438.87407,N,01136.26175,W,1,08,"
"##MN-00 00 86 0000 02003 3783 613117 848149 213"
"124.55375"
"$GPGGA,131611.574,4438.87409,N,01136.26215,W,1,08,"
"##MN-00 00 87 0000 02005 3783 613087 847937 213"
"124.553762"
"$GPGGA,131612.574,4438.87405,N,01136.26261,W,1,09,"
"##MN-00 00 88 0000 02004 3783 613027 847595 213"
"124.553773"
"$GPGGA,131613.574,4438.87396,N,01136.26324,W,1,09,"
"##MN-00 00 88 0000 02004 3784 612782 847318 213"
"124.553785"
"$GPGGA,131614.574,4438.87393,N,01136.26401,W,1,09,"
"##MN-00 00 86 0000 02005 3783 612604 848701 213"
"124.553796"
"$GPGGA,131615.574,4438.87395,N,01136.26478,W,1,09,"
"##MN-00 00 85 0000 02005 3783 612350 848424 213"
"124.553808"
"$GPGGA,131616.574,4438.87400,N,01136.26542,W,1,09,"
"##MN-00 00 85 0000 02004 3784 612261 849000 213"
"124.553831"
"$GPGGA,131617.574,4438.87404,N,01136.26592,W,1,08,"
"##MN-00 00 86 0000 02003 3784 612224 848979 213"
"124.553843"
"$GPGGA,131618.574,4438.87407,N,01136.26635,W,1,09,"
"##MN-00 00 88 0000 02006 3784 612267 847871 213"
"124.553854"
"$GPGGA,131620.574,4438.87399,N,01136.26731,W,1,09,"
"##MN-00 00 87 0000 02004 3784 612261 847041 213"
"124.553866"
"$GPGGA,131621.574,4438.87390,N,01136.26793,W,1,09,"
"##MN-00 00 86 0000 02004 3784 612278 848703 213"
"124.553877"
"$GPGGA,131622.574,4438.87384,N,01136.26858,W,1,09,"
"##MN-00 00 86 0000 02003 3784 612422 847406 213"
"124.553889"
"$GPGGA,131623.574,4438.87385,N,01136.26917,W,1,09,"
"##MN-00 00 86 0000 02005 3784 612519 847225 213"
"124.5539"
"$GPGGA,131624.574,4438.87386,N,01136.26975,W,1,09,"
"##MN-00 00 86 0000 02005 3785 612549 848469 213"
"124.553912"
"$GPGGA,131625.574,4438.87389,N,01136.27035,W,1,09,"
"##MN-00 00 87 0000 02004 3785 612549 849256 213"
"124.553924"
"$GPGGA,131626.574,4438.87395,N,01136.27092,W,1,09,"
"##MN-00 00 87 0000 02006 3785 612455 848148 213"
"124.553935"
"$GPGGA,131627.574,4438.87398,N,01136.27143,W,1,09,"
"##MN-00 00 86 0000 02002 3785 612431 848425 213"
"124.553947"
"$GPGGA,131628.574,4438.87393,N,01136.27190,W,1,08,"
"##MN-00 00 85 0000 02005 3785 612542 847596 213"
"124.553958"
"$GPGGA,131629.574,4438.87382,N,01136.27235,W,1,09,"
"##MN-00 00 86 0000 02006 3785 612551 848470 213"
"124.55397"
"$GPGGA,131630.574,4438.87375,N,01136.27287,W,1,09,"
"##MN-00 00 88 0000 02004 3785 612569 848146 213"
"124.553981"
"$GPGGA,131631.574,4438.87372,N,01136.27347,W,1,09,"
"##MN-00 00 88 0000 02004 3785 612467 848427 213"
"124.553993"
"$GPGGA,131632.574,4438.87368,N,01136.27414,W,1,09,"
"##MN-00 00 86 0000 02007 3785 612236 848979 213"
"124.554005"
"$GPGGA,131633.574,4438.87360,N,01136.27478,W,1,09,"
"##MN-00 00 85 0000 02005 3785 611971 848149 213"
"124.554016"
"$GPGGA,131634.574,4438.87353,N,01136.27534,W,1,09,"
"##MN-00 00 85 0000 02003 3786 611680 847141 213"
"124.554028"
"$GPGGA,131635.574,4438.87353,N,01136.27582,W,1,09,"
"##MN-00 00 86 0000 02005 3785 611005 847596 213"
"124.554039"
"$GPGGA,131636.574,4438.87357,N,01136.27629,W,1,09,"
"##MN-00 00 87 0000 02004 3786 610924 847595 213"
"124.554051"
"$GPGGA,131637.574,4438.87360,N,01136.27681,W,1,09,"
"##MN-00 00 88 0000 02005 3786 611351 848150 213"
"124.554062"
"$GPGGA,131638.574,4438.87356,N,01136.27735,W,1,09,"
"##MN-00 00 86 0000 02006 3786 611377 848423 213"
"124.554074"
"$GPGGA,131639.574,4438.87346,N,01136.27788,W,1,09,"
"##MN-00 00 85 0000 02004 3786 611189 847673 213"
"124.554086"
"$GPGGA,131640.574,4438.87331,N,01136.27839,W,1,09,"
"##MN-00 00 86 0000 02005 3786 611082 847597 213"
"124.554109"
"$GPGGA,131641.574,4438.87322,N,01136.27892,W,1,09,"
"##MN-00 00 87 0000 02005 3786 611008 848149 213"
"124.55412"
"$GPGGA,131642.574,4438.87322,N,01136.27949,W,1,09,"
"##MN-00 00 88 0000 02006 3786 610770 847406 213"
"124.554132"
"$GPGGA,131644.574,4438.87329,N,01136.28074,W,1,09,"
"##MN-00 00 87 0000 02006 3786 610595 847514 213"
"124.554144"
"$GPGGA,131645.574,4438.87323,N,01136.28133,W,1,09,"
"##MN-00 00 86 0000 02003 3786 610540 847141 213"
"124.554155"
"$GPGGA,131646.574,4438.87314,N,01136.28182,W,1,09,"
"##MN-00 00 86 0000 02006 3786 610346 847871 213"
"124.554167"
"$GPGGA,131647.574,4438.87305,N,01136.28222,W,1,09,"
"##MN-00 00 86 0000 02005 3787 610375 847319 213"
"124.554178"
"$GPGGA,131648.574,4438.87299,N,01136.28262,W,1,09,"
"##MN-00 00 86 0000 02006 3787 610305 847873 213"
"124.55419"
"$GPGGA,131649.574,4438.87295,N,01136.28316,W,1,09,"
"##MN-00 00 88 0000 02005 3787 610418 848204 213"
"124.554201"
"$GPGGA,131650.574,4438.87295,N,01136.28385,W,1,09,"
"##MN-00 00 88 0000 02005 3787 610704 846765 213"
"124.554213"
"$GPGGA,131651.574,4438.87290,N,01136.28460,W,1,09,"
"##MN-00 00 86 0000 02004 3787 610888 848151 213"
"124.554225"
"$GPGGA,131652.574,4438.87283,N,01136.28528,W,1,09,"
"##MN-00 00 85 0000 02004 3787 610897 847595 213"
"124.554236"
"$GPGGA,131653.574,4438.87275,N,01136.28584,W,1,09,"
"##MN-00 00 85 0000 02004 3787 610829 847873 213"
"124.554248"
"$GPGGA,131654.574,4438.87267,N,01136.28626,W,1,09,"
"##MN-00 00 86 0000 02004 3787 610804 847673 213"
"124.554259"
"$GPGGA,131655.574,4438.87263,N,01136.28663,W,1,09,"
"##MN-00 00 87 0000 02005 3787 610637 847873 213"
"124.554271"
"$GPGGA,131656.574,4438.87263,N,01136.28707,W,1,09,"
"##MN-00 00 87 0000 02006 3787 610523 848704 213"
"124.554282"
"$GPGGA,131657.574,4438.87265,N,01136.28764,W,1,09,"
"##MN-00 00 87 0000 02004 3787 610561 847594 213"
"124.554294"
"$GPGGA,131658.574,4438.87265,N,01136.28834,W,1,09,"
"##MN-00 00 87 0000 02005 3787 610765 847594 213"
"124.554306"
"$GPGGA,131659.574,4438.87261,N,01136.28908,W,1,09,"
"##MN-00 00 86 0000 02007 3788 610864 847673 213"
"124.554317"
"$GPGGA,131700.574,4438.87254,N,01136.28982,W,1,09,"
"##MN-00 00 86 0000 02006 3787 610874 848425 213"
"124.554329"
"$GPGGA,131701.574,4438.87249,N,01136.29050,W,1,09,"
"##MN-00 00 86 0000 02006 3788 610830 848149 213"
"124.55434"
"$GPGGA,131702.574,4438.87242,N,01136.29107,W,1,09,"
"##MN-00 00 86 0000 02006 3788 610701 847597 213"
"124.554352"
"$GPGGA,131703.574,4438.87234,N,01136.29154,W,1,09,"
"##MN-00 00 86 0000 02004 3788 610622 847595 213"
"124.554375"
"$GPGGA,131704.574,4438.87230,N,01136.29197,W,1,09,"
"##MN-00 00 86 0000 02005 3788 610541 848469 213"
"124.554387"
"$GPGGA,131705.574,4438.87225,N,01136.29244,W,1,09,"
"##MN-00 00 86 0000 02004 3788 610454 848149 213"
"124.554398"
"$GPGGA,131706.574,4438.87217,N,01136.29299,W,1,09,"
"##MN-00 00 86 0000 02005 3788 610424 848975 213"
"124.55441"
"$GPGGA,131708.574,4438.87201,N,01136.29438,W,1,09,"
"##MN-00 00 87 0000 02005 3788 610362 847875 213"
"124.554421"
"$GPGGA,131709.574,4438.87196,N,01136.29517,W,1,09,"
"##MN-00 00 87 0000 02006 3788 610414 847044 213"
"124.554433"
"$GPGGA,131710.574,4438.87196,N,01136.29590,W,1,09,"
"##MN-00 00 86 0000 02005 3788 610620 847408 213"
"124.554444"
"$GPGGA,131711.574,4438.87198,N,01136.29653,W,1,08,"
"##MN-00 00 86 0000 02005 3788 610781 848978 213"
"124.554456"
"$GPGGA,131712.574,4438.87201,N,01136.29702,W,1,08,"
"##MN-00 00 86 0000 02005 3788 610787 846766 213"
"124.554468"
"$GPGGA,131713.574,4438.87197,N,01136.29743,W,1,08,"
"##MN-00 00 86 0000 02005 3789 610849 847595 213"
"124.554479"
"$GPGGA,131714.574,4438.87187,N,01136.29788,W,1,09,"
"##MN-00 00 88 0000 02005 3788 610848 847319 213"
"124.554491"
"$GPGGA,131715.574,4438.87177,N,01136.29840,W,1,09,"
"##MN-00 00 88 0000 02006 3789 610710 847408 213"
"124.554502"
"$GPGGA,131716.574,4438.87167,N,01136.29902,W,1,09,"
"##MN-00 00 86 0000 02006 3789 610570 848149 213"
"124.554514"
"$GPGGA,131717.574,4438.87159,N,01136.29974,W,1,09,"
"##MN-00 00 85 0000 02005 3789 610533 848977 213"
"124.554525"
"$GPGGA,131718.574,4438.87155,N,01136.30053,W,1,09,"
"##MN-00 00 87 0000 02006 3789 610424 845937 213"
"124.554537"
"$GPGGA,131719.574,4438.87155,N,01136.30133,W,1,09,"
"##MN-00 00 88 0000 02005 3789 610248 848425 213"
"124.554549"
"$GPGGA,131720.574,4438.87155,N,01136.30201,W,1,09,"
"##MN-00 00 87 0000 02005 3789 610239 849267 213"
"124.55456"
"$GPGGA,131721.574,4438.87149,N,01136.30250,W,1,09,"
"##MN-00 00 85 0000 02005 3789 610275 848702 213"
"124.554572"
"$GPGGA,131722.574,4438.87136,N,01136.30285,W,1,08,"
"##MN-00 00 85 0000 02007 3789 610297 848148 213"
"124.554583"
"$GPGGA,131723.574,4438.87124,N,01136.30315,W,1,09,"
"##MN-00 00 87 0000 02005 3789 610611 847595 213"
"124.554595"
"$GPGGA,131724.574,4438.87117,N,01136.30351,W,1,09,"
"##MN-00 00 88 0000 02005 3789 611163 848149 213"
"124.554606"
"$GPGGA,131725.574,4438.87114,N,01136.30402,W,1,09,"
"##MN-00 00 88 0000 02003 3789 611431 848469 213"
"124.554618"
"$GPGGA,131726.574,4438.87107,N,01136.30471,W,1,09,"
"##MN-00 00 86 0000 02007 3789 611429 846767 213"
"124.55463"
"$GPGGA,131727.574,4438.87096,N,01136.30548,W,1,09,"
"##MN-00 00 86 0000 02007 3789 611439 848426 213"
"124.554653"
"$GPGGA,131728.574,4438.87087,N,01136.30621,W,1,09,"
"##MN-00 00 86 0000 02006 3790 611363 849531 213"
"124.554664"
"$GPGGA,131729.574,4438.87083,N,01136.30680,W,1,09,"
"##MN-00 00 86 0000 02005 3789 611194 847591 213"
"124.554676"
"$GPGGA,131730.574,4438.87080,N,01136.30726,W,1,09,"
"##MN-00 00 87 0000 02006 3789 611073 847676 213"
"124.554688"
"$GPGGA,131732.574,4438.87059,N,01136.30806,W,1,09,"
"##MN-00 00 86 0000 02005 3790 611027 847043 213"
"124.554699"
"$GPGGA,131733.574,4438.87048,N,01136.30857,W,1,09,"
"##MN-00 00 86 0000 02005 3790 611132 848425 213"
"124.554711"
"$GPGGA,131734.574,4438.87037,N,01136.30920,W,1,09,"
"##MN-00 00 87 0000 02006 3790 611180 848702 213"
"124.554722"
"$GPGGA,131735.574,4438.87027,N,01136.30985,W,1,09,"
"##MN-00 00 87 0000 02007 3790 610960 848424 213"
"124.554734"
"$GPGGA,131736.574,4438.87021,N,01136.31046,W,1,09,"
"##MN-00 00 86 0000 02003 3790 610803 848471 213"
"124.554745"
"$GPGGA,131737.574,4438.87014,N,01136.31103,W,1,09,"
"##MN-00 00 85 0000 02007 3790 610538 848702 213"
"124.554757"
"$GPGGA,131738.574,4438.87002,N,01136.31158,W,1,09,"
"##MN-00 00 86 0000 02005 3790 610422 846213 213"
"124.554769"
"$GPGGA,131739.574,4438.86987,N,01136.31211,W,1,09,"
"##MN-00 00 87 0000 02005 3790 610356 848703 213"
"124.55478"
"$GPGGA,131740.574,4438.86972,N,01136.31265,W,1,09,"
"##MN-00 00 87 0000 02006 3790 610366 848700 213"
"124.554792"
"$GPGGA,131741.574,4438.86961,N,01136.31320,W,1,09,"
"##MN-00 00 86 0000 02006 3790 610410 849268 213"
"124.554803"
"$GPGGA,131742.574,4438.86954,N,01136.31377,W,1,09,"
"##MN-00 00 86 0000 02004 3790 610503 849243 213"
"124.554815"
"$GPGGA,131743.574,4438.86948,N,01136.31431,W,1,09,"
"##MN-00 00 86 0000 02006 3790 610654 847673 213"
"124.554826"
"$GPGGA,131744.574,4438.86939,N,01136.31483,W,1,09,"
"##MN-00 00 86 0000 02005 3790 610690 848149 213"
"124.554838"
"$GPGGA,131745.574,4438.86926,N,01136.31535,W,1,09,"
"##MN-00 00 87 0000 02007 3790 610660 846490 213"
"124.55485"
"$GPGGA,131746.574,4438.86912,N,01136.31588,W,1,09,"
"##MN-00 00 87 0000 02006 3790 610537 848470 213"
"124.554861"
"$GPGGA,131747.574,4438.86899,N,01136.31642,W,1,09,"
"##MN-00 00 86 0000 02005 3790 610212 847873 213"
"124.554873"
"$GPGGA,131748.574,4438.86887,N,01136.31698,W,1,09,"
"##MN-00 00 86 0000 02005 3790 610086 847320 213"
"124.554884"
"$GPGGA,131749.574,4438.86878,N,01136.31755,W,1,09,"
"##MN-00 00 86 0000 02006 3790 609960 848148 213"
"124.554896"
"$GPGGA,131750.574,4438.86871,N,01136.31812,W,1,09,"
"##MN-00 00 87 0000 02006 3790 609847 848147 213"
"124.554907"
"$GPGGA,131751.574,4438.86862,N,01136.31871,W,1,09,"
"##MN-00 00 87 0000 02005 3790 609771 848999 213"
"124.554931"
"$GPGGA,131752.574,4438.86846,N,01136.31933,W,1,09,"
"##MN-00 00 87 0000 02005 3791 609803 848090 213"
"124.554942"
"$GPGGA,131753.574,4438.86828,N,01136.31995,W,1,09,"
"##MN-00 00 86 0000 02006 3791 610040 848470 213"
"124.554954"
"$GPGGA,131754.574,4438.86817,N,01136.32056,W,1,09,"
"##MN-00 00 86 0000 02005 3791 610287 847317 213"
"124.554965"
"$GPGGA,131756.574,4438.86803,N,01136.32156,W,1,09,"
"##MN-00 00 86 0000 02006 3791 610575 847046 213"
"124.554977"
"$GPGGA,131757.574,4438.86792,N,01136.32200,W,1,09,"
"##MN-00 00 86 0000 02005 3791 610671 848203 213"
"124.554988"
"$GPGGA,131758.574,4438.86783,N,01136.32251,W,1,09,"
"##MN-00 00 87 0000 02006 3791 610610 847870 213"
"124.555"
"$GPGGA,131759.574,4438.86774,N,01136.32309,W,1,09,"
"##MN-00 00 87 0000 02006 3791 610511 848151 213"
"124.555012"
"$GPGGA,131800.574,4438.86765,N,01136.32374,W,1,09,"
"##MN-00 00 86 0000 02004 3791 610446 847320 213"
"124.555023"
"$GPGGA,131801.574,4438.86754,N,01136.32441,W,1,09,"
"##MN-00 00 86 0000 02007 3791 610370 848147 213"
"124.555035"
"$GPGGA,131802.574,4438.86741,N,01136.32507,W,1,09,"
"##MN-00 00 87 0000 02004 3791 610205 848205 213"
"124.555046"
"$GPGGA,131803.574,4438.86729,N,01136.32569,W,1,09,"
"##MN-00 00 87 0000 02007 3791 610190 848149 213"
"124.555058"
"$GPGGA,131804.574,4438.86720,N,01136.32623,W,1,09,"
"##MN-00 00 86 0000 02006 3791 610286 846767 213"
"124.555069"
"$GPGGA,131805.574,4438.86712,N,01136.32674,W,1,08,"
"##MN-00 00 86 0000 02005 3791 610135 848425 213"
"124.555081"
"$GPGGA,131806.574,4438.86705,N,01136.32727,W,1,08,"
"##MN-00 00 86 0000 02006 3791 610106 848426 213"
"124.555093"
"$GPGGA,131807.574,4438.86698,N,01136.32780,W,1,08,"
"##MN-00 00 87 0000 02005 3791 610265 846766 213"
"124.555104"
"$GPGGA,131808.574,4438.86688,N,01136.32834,W,1,08,"
"##MN-00 00 87 0000 02004 3791 610358 847938 213"
"124.555116"
"$GPGGA,131809.574,4438.86673,N,01136.32893,W,1,08,"
"##MN-00 00 86 0000 02007 3791 610411 848979 213"
"124.555127"
"$GPGGA,131810.574,4438.86661,N,01136.32959,W,1,08,"
"##MN-00 00 86 0000 02006 3791 610466 847043 213"
"124.555139"
"$GPGGA,131811.574,4438.86652,N,01136.33029,W,1,08,"
"##MN-00 00 87 0000 02005 3791 610375 847318 213"
"124.55515"
"$GPGGA,131812.574,4438.86643,N,01136.33091,W,1,08,"
"##MN-00 00 87 0000 02007 3791 610359 847320 213"
"124.555162"
"$GPGGA,131813.574,4438.86637,N,01136.33144,W,1,08,"
"##MN-00 00 86 0000 02007 3792 610368 848470 213"
"124.555174"
"$GPGGA,131814.574,4438.86633,N,01136.33192,W,1,08,"
"##MN-00 00 86 0000 02006 3791 610397 846489 213"
"124.555185"
"$GPGGA,131815.574,4438.86627,N,01136.33239,W,1,08,"
"##MN-00 00 87 0000 02005 3792 610843 848978 213"
"124.555208"
"$GPGGA,131816.574,4438.86619,N,01136.33292,W,1,08,"
"##MN-00 00 88 0000 02005 3791 611505 847596 213"
"124.55522"
"$GPGGA,131817.574,4438.86606,N,01136.33355,W,1,08,"
"##MN-00 00 87 0000 02005 3791 611823 847320 213"
"124.555231"
"$GPGGA,131818.574,4438.86593,N,01136.33424,W,1,08,"
"##MN-00 00 86 0000 02005 3791 611775 847673 213"
"124.555243"
"$GPGGA,131820.574,4438.86581,N,01136.33557,W,1,08,"
"##MN-00 00 85 0000 02004 3792 611558 848427 213"
"124.555255"
"$GPGGA,131821.574,4438.86580,N,01136.33610,W,1,08,"
"##MN-00 00 86 0000 02007 3791 611456 848150 213"
"124.555266"
"$GPGGA,131822.574,4438.86576,N,01136.33656,W,1,08,"
"##MN-00 00 87 0000 02006 3792 611341 847871 213"
"124.555278"
"$GPGGA,131823.574,4438.86567,N,01136.33701,W,1,08,"
"##MN-00 00 87 0000 02004 3792 611311 847042 213"
"124.555289"
"$GPGGA,131824.574,4438.86557,N,01136.33754,W,1,08,"
"##MN-00 00 86 0000 02004 3792 611251 847143 213"
"124.555301"
"$GPGGA,131825.574,4438.86546,N,01136.33819,W,1,08,"
"##MN-00 00 87 0000 02007 3792 611256 848426 213"
"124.555313"
"$GPGGA,131826.574,4438.86539,N,01136.33891,W,1,08,"
"##MN-00 00 87 0000 02007 3792 611199 848702 213"
"124.555324"
"$GPGGA,131827.574,4438.86534,N,01136.33958,W,1,08,"
"##MN-00 00 86 0000 02006 3792 611020 847871 213"
"124.555336"
"$GPGGA,131828.574,4438.86530,N,01136.34018,W,1,08,"
"##MN-00 00 85 0000 02005 3792 610832 847872 213"
"124.555347"
"$GPGGA,131829.574,4438.86527,N,01136.34073,W,1,08,"
"##MN-00 00 86 0000 02007 3792 610789 848204 213"
"124.555359"
"$GPGGA,131830.574,4438.86524,N,01136.34124,W,1,08,"
"##MN-00 00 87 0000 02007 3792 610935 848149 213"
"124.55537"
"$GPGGA,131831.574,4438.86519,N,01136.34176,W,1,08,"
"##MN-00 00 87 0000 02006 3792 610992 847872 213"
"124.555382"
"$GPGGA,131832.574,4438.86512,N,01136.34234,W,1,08,"
"##MN-00 00 87 0000 02008 3792 610959 848425 213"
"124.555394"
"$GPGGA,131833.574,4438.86504,N,01136.34295,W,1,08,"
"##MN-00 00 86 0000 02006 3792 610891 848701 213"
"124.555405"
"$GPGGA,131834.574,4438.86495,N,01136.34358,W,1,08,"
"##MN-00 00 86 0000 02006 3792 610912 846878 213"
"124.555417"
"$GPGGA,131835.574,4438.86486,N,01136.34419,W,1,08,"
"##MN-00 00 86 0000 02006 3792 610912 848425 213"
"124.555428"
"$GPGGA,131836.574,4438.86478,N,01136.34476,W,1,08,"
"##MN-00 00 87 0000 02006 3792 610927 848149 213"
"124.55544"
"$GPGGA,131837.574,4438.86468,N,01136.34531,W,1,08,"
"##MN-00 00 87 0000 02005 3792 610992 846490 213"
"124.555451"
"$GPGGA,131838.574,4438.86459,N,01136.34585,W,1,08,"
"##MN-00 00 86 0000 02004 3792 610920 847873 213"
"124.555463"
"$GPGGA,131839.574,4438.86459,N,01136.34641,W,1,08,"
"##MN-00 00 86 0000 02004 3792 610929 848203 213"
"124.555486"
"$GPGGA,131840.574,4438.86460,N,01136.34702,W,1,08,"
"##MN-00 00 87 0000 02007 3792 611081 849254 213"
"124.555498"
"$GPGGA,131841.574,4438.86459,N,01136.34765,W,1,08,"
"##MN-00 00 87 0000 02006 3792 611186 847320 213"
"124.555509"
"$GPGGA,131843.574,4438.86450,N,01136.34896,W,1,08,"
"##MN-00 00 86 0000 02006 3792 611118 847315 213"
"124.555521"
"$GPGGA,131844.574,4438.86442,N,01136.34963,W,1,08,"
"##MN-00 00 86 0000 02007 3792 611113 847678 213"
"124.555532"
"$GPGGA,131845.574,4438.86430,N,01136.35021,W,1,08,"
"##MN-00 00 86 0000 02004 3792 611290 847871 213"
"124.555544"
"$GPGGA,131846.574,4438.86417,N,01136.35071,W,1,08,"
"##MN-00 00 86 0000 02007 3792 611519 848701 213"
"124.555556"
"$GPGGA,131847.574,4438.86405,N,01136.35119,W,1,08,"
"##MN-00 00 86 0000 02005 3792 611572 847871 213"
"124.555567"
"$GPGGA,131848.574,4438.86399,N,01136.35176,W,1,08,"
"##MN-00 00 86 0000 02007 3792 611630 848425 213"
"124.555579"
"$GPGGA,131849.574,4438.86401,N,01136.35241,W,1,08,"
"##MN-00 00 87 0000 02006 3792 611784 847674 213"
"124.55559"
"$GPGGA,131850.574,4438.86402,N,01136.35311,W,1,08,"
"##MN-00 00 87 0000 02005 3792 611934 847596 213"
"124.555602"
"$GPGGA,131851.574,4438.86396,N,01136.35380,W,1,08,"
"##MN-00 00 86 0000 02005 3792 612129 846767 213"
"124.555613"
"$GPGGA,131852.574,4438.86389,N,01136.35444,W,1,08,"
"##MN-00 00 86 0000 02006 3792 612276 847318 213"
"124.555625"
"$GPGGA,131853.574,4438.86385,N,01136.35502,W,1,08,"
"##MN-00 00 86 0000 02006 3792 612370 848425 213"
"124.555637"
"$GPGGA,131854.574,4438.86386,N,01136.35560,W,1,08,"
"##MN-00 00 87 0000 02005 3793 612482 847939 213"
"124.555648"
"$GPGGA,131855.574,4438.86384,N,01136.35621,W,1,08,"
"##MN-00 00 87 0000 02006 3792 612375 847597 213"
"124.55566"
"$GPGGA,131856.574,4438.86373,N,01136.35687,W,1,08,"
"##MN-00 00 87 0000 02007 3792 612326 848146 213"
"124.555671"
"$GPGGA,131857.574,4438.86359,N,01136.35756,W,1,08,"
"##MN-00 00 87 0000 02006 3793 612351 847321 213"
"124.555683"
"$GPGGA,131858.574,4438.86348,N,01136.35824,W,1,08,"
"##MN-00 00 86 0000 02007 3792 612335 847043 213"
"124.555694"
"$GPGGA,131859.574,4438.86341,N,01136.35885,W,1,08,"
"##MN-00 00 86 0000 02006 3792 612260 847674 213"
"124.555706"
"$GPGGA,131900.574,4438.86342,N,01136.35936,W,1,08,"
"##MN-00 00 86 0000 02007 3793 612193 849255 213"
"124.555718"
"$GPGGA,131901.574,4438.86344,N,01136.35984,W,1,08,"
"##MN-00 00 87 0000 02008 3792 612233 845937 213"
"124.555729"
"$GPGGA,131902.574,4438.86343,N,01136.36037,W,1,08,"
"##MN-00 00 87 0000 02007 3793 612306 848424 213"
"124.555741"
"$GPGGA,131903.574,4438.86336,N,01136.36102,W,1,08,"
"##MN-00 00 87 0000 02006 3792 612303 848425 213"
"124.555764"
"$GPGGA,131904.574,4438.86328,N,01136.36183,W,1,08,"
"##MN-00 00 87 0000 02005 3793 612264 847939 213"
"124.555775"
"$GPGGA,131905.574,4438.86321,N,01136.36269,W,1,08,"
"##MN-00 00 86 0000 02006 3793 612418 847874 213"
"124.555787"
"$GPGGA,131907.574,4438.86317,N,01136.36408,W,1,08,"
"##MN-00 00 86 0000 02007 3793 612527 847317 213"
"124.555799"
"$GPGGA,131908.574,4438.86312,N,01136.36458,W,1,08,"
"##MN-00 00 86 0000 02006 3792 612493 847875 213"
"124.55581"
"$GPGGA,131909.574,4438.86306,N,01136.36505,W,1,08,"
"##MN-00 00 87 0000 02007 3793 612344 848701 213"
"124.555822"
"$GPGGA,131910.574,4438.86304,N,01136.36558,W,1,08,"
"##MN-00 00 87 0000 02007 3793 612130 847139 213"
"124.555833"
"$GPGGA,131911.574,4438.86302,N,01136.36623,W,1,08,"
"##MN-00 00 87 0000 02007 3793 611933 847046 213"
"124.555845"
"$GPGGA,131912.574,4438.86293,N,01136.36699,W,1,08,"
"##MN-00 00 87 0000 02007 3793 611721 848426 213"
"124.555856"
"$GPGGA,131913.574,4438.86285,N,01136.36779,W,1,08,"
"##MN-00 00 86 0000 02007 3792 611503 847320 213"
"124.555868"
"$GPGGA,131914.574,4438.86283,N,01136.36856,W,1,08,"
"##MN-00 00 86 0000 02007 3793 611293 848977 213"
"124.55588"
"$GPGGA,131915.574,4438.86282,N,01136.36926,W,1,08,"
"##MN-00 00 86 0000 02007 3793 611143 847141 213"
"124.555891"
"$GPGGA,131916.574,4438.86279,N,01136.36989,W,1,08,"
"##MN-00 00 86 0000 02007 3793 610969 847042 213"
"124.555903"
"$GPGGA,131917.574,4438.86279,N,01136.37050,W,1,08,"
"##MN-00 00 86 0000 02005 3793 610892 847317 213"
"124.555914"
"$GPGGA,131918.574,4438.86277,N,01136.37112,W,1,08,"
"##MN-00 00 87 0000 02007 3792 610865 847872 213"
"124.555926"
"$GPGGA,131919.574,4438.86266,N,01136.37174,W,1,08,"
"##MN-00 00 86 0000 02005 3793 610863 848149 213"
"124.555937"
"$GPGGA,131920.574,4438.86248,N,01136.37237,W,1,08,"
"##MN-00 00 86 0000 02005 3793 610850 847407 213"
"124.555949"
"$GPGGA,131921.574,4438.86236,N,01136.37303,W,1,08,"
"##MN-00 00 86 0000 02007 3793 611035 847597 213"
"124.555961"
"$GPGGA,131922.574,4438.86237,N,01136.37379,W,1,08,"
"##MN-00 00 88 0000 02004 3793 611224 847873 213"
"124.555972"
"$GPGGA,131923.574,4438.86243,N,01136.37460,W,1,08,"
"##MN-00 00 87 0000 02006 3793 611296 847874 213"
"124.555984"
"$GPGGA,131924.574,4438.86246,N,01136.37536,W,1,08,"
"##MN-00 00 86 0000 02007 3793 611269 847142 213"
"124.555995"
"$GPGGA,131925.574,4438.86241,N,01136.37601,W,1,08,"
"##MN-00 00 85 0000 02008 3793 611228 847871 213"
"124.556007"
"$GPGGA,131926.574,4438.86233,N,01136.37655,W,1,08,"
"##MN-00 00 86 0000 02007 3793 611220 848425 213"
"124.556019"
"$GPGGA,131927.574,4438.86225,N,01136.37708,W,1,08,"
"##MN-00 00 88 0000 02007 3793 611713 847873 213"
"124.556042"
"$GPGGA,131928.574,4438.86219,N,01136.37769,W,1,08,"
"##MN-00 00 88 0000 02005 3793 612251 847596 213"
"124.556053"
"$GPGGA,131929.574,4438.86216,N,01136.37840,W,1,08,"
"##MN-00 00 86 0000 02006 3793 612425 848471 213"
"124.556065"
"$GPGGA,131931.574,4438.86204,N,01136.37990,W,1,08,"
"##MN-00 00 86 0000 02008 3793 612412 847513 213"
"124.556076"
"$GPGGA,131932.574,4438.86199,N,01136.38054,W,1,08,"
"##MN-00 00 86 0000 02007 3793 612312 848204 213"
"124.556088"
"$GPGGA,131933.575,4438.86197,N,01136.38108,W,1,08,"
"##MN-00 00 86 0000 02006 3793 612383 848426 213"
"124.5561"
"$GPGGA,131934.575,4438.86192,N,01136.38160,W,1,08,"
"##MN-00 00 86 0000 02006 3793 612659 848703 213"
"124.556111"
"$GPGGA,131935.575,4438.86185,N,01136.38218,W,1,08,"
"##MN-00 00 87 0000 02007 3793 612806 847141 213"
"124.556123"
"$GPGGA,131936.575,4438.86178,N,01136.38285,W,1,08,"
"##MN-00 00 87 0000 02006 3793 612561 847320 213"
"124.556134"
"$GPGGA,131937.575,4438.86173,N,01136.38361,W,1,08,"
"##MN-00 00 86 0000 02007 3793 612193 847595 213"
"124.556146"
"$GPGGA,131938.575,4438.86174,N,01136.38439,W,1,08,"
"##MN-00 00 86 0000 02007 3793 612105 847597 213"
"124.556157"
"$GPGGA,131939.575,4438.86177,N,01136.38513,W,1,08,"
"##MN-00 00 87 0000 02004 3793 612395 848701 213"
"124.556169"
"$GPGGA,131940.575,4438.86176,N,01136.38576,W,1,08,"
"##MN-00 00 87 0000 02006 3793 612578 848203 213"
"124.556181"
"$GPGGA,131941.575,4438.86168,N,01136.38629,W,1,08,"
"##MN-00 00 86 0000 02005 3793 612699 848380 213"
"124.556192"
"$GPGGA,131942.575,4438.86156,N,01136.38679,W,1,08,"
"##MN-00 00 85 0000 02006 3793 612747 848734 213"
"124.556204"
"$GPGGA,131943.575,4438.86144,N,01136.38734,W,1,08,"
"##MN-00 00 86 0000 02006 3793 612565 848427 213"
"124.556215"
"$GPGGA,131944.575,4438.86133,N,01136.38799,W,1,08,"
"##MN-00 00 88 0000 02007 3793 612448 848702 213"
"124.556227"
"$GPGGA,131945.575,4438.86127,N,01136.38870,W,1,08,"
"##MN-00 00 87 0000 02006 3793 612284 847409 213"
"124.556238"
"$GPGGA,131946.575,4438.86125,N,01136.38942,W,1,08,"
"##MN-00 00 86 0000 02008 3793 612143 848089 213"
"124.55625"
"$GPGGA,131947.575,4438.86120,N,01136.39009,W,1,08,"
"##MN-00 00 85 0000 02007 3793 612076 847673 213"
"124.556262"
"$GPGGA,131948.575,4438.86113,N,01136.39064,W,1,08,"
"##MN-00 00 85 0000 02007 3793 611965 848149 213"
"124.556273"
"$GPGGA,131949.575,4438.86107,N,01136.39110,W,1,08,"
"##MN-00 00 87 0000 02007 3793 611878 847873 213"
"124.556285"
"$GPGGA,131950.575,4438.86103,N,01136.39161,W,1,08,"
"##MN-00 00 88 0000 02007 3793 611914 848425 213"
"124.556296"
"$GPGGA,131951.575,4438.86099,N,01136.39224,W,1,08,"
"##MN-00 00 87 0000 02007 3794 612257 848977 213"
"124.556319"
"$GPGGA,131952.575,4438.86091,N,01136.39297,W,1,08,"
"##MN-00 00 86 0000 02007 3793 612590 847144 213"
"124.556331"
"$GPGGA,131953.575,4438.86077,N,01136.39366,W,1,08,"
"##MN-00 00 85 0000 02005 3793 612724 847872 213"
"124.556343"
"$GPGGA,131955.575,4438.86052,N,01136.39470,W,1,08,"
"##MN-00 00 85 0000 02006 3794 612585 848425 213"
"124.556354"
"$GPGGA,131956.575,4438.86041,N,01136.39517,W,1,08,"
"##MN-00 00 87 0000 02010 3793 612582 848426 213"
"124.556366"
"$GPGGA,131957.575,4438.86034,N,01136.39574,W,1,08,"
"##MN-00 00 88 0000 02009 3793 612506 847874 213"
"124.556377"
"$GPGGA,131958.575,4438.86032,N,01136.39643,W,1,08,"
"##MN-00 00 87 0000 02006 3793 612456 848469 213"
"124.556389"
"$GPGGA,131959.575,4438.86032,N,01136.39721,W,1,08,"
"##MN-00 00 86 0000 02006 3794 612382 848703 213"
"124.5564"
"$GPGGA,132000.575,4438.86031,N,01136.39796,W,1,08,"
"##MN-00 00 86 0000 02005 3793 612287 848426 213"
"124.556412"
"$GPGGA,132001.575,4438.86028,N,01136.39861,W,1,08,"
"##MN-00 00 86 0000 02007 3793 612227 846215 213"
"124.556424"
"$GPGGA,132002.575,4438.86020,N,01136.39913,W,1,08,"
"##MN-00 00 86 0000 02007 3793 612153 848149 213"
"124.556435"
"$GPGGA,132003.575,4438.86004,N,01136.39953,W,1,08,"
"##MN-00 00 86 0000 02007 3793 612153 848149 213"
"124.562755"
"$GPGGA,132906.577,4438.81732,N,01136.73352,W,1,09,"
"##MN-00 00 38 0037 02297 3739 618966 511758 212"
"124.562778"
"$GPGGA,132910.577,4438.81675,N,01136.73513,W,1,09,"
"##MN-00 00 26 0037 02292 3738 633852 256776 212"
"124.562801"
"$GPGGA,132912.577,4438.81676,N,01136.73633,W,1,09,"
"##MN-00 00 25 0037 02305 3737 633859 256774 212"
"124.562812"
"$GPGGA,132914.577,4438.81652,N,01136.73761,W,1,09,"
"##MN-00 00 33 0037 02307 3736 633870 256776 212"
"124.562836"
"$GPGGA,132915.577,4438.81637,N,01136.73806,W,1,09,"
"##MN-00 00 34 0038 02300 3735 633871 256776 212"
"124.562859"
"$GPGGA,132917.577,4438.81612,N,01136.73894,W,1,09,"
"##MN-00 00 33 0038 02302 3734 633857 256774 212"
"124.562882"
"$GPGGA,132919.577,4438.81593,N,01136.73999,W,1,09,"
"##MN-00 00 36 0038 02303 3733 633872 256777 212"
"124.562905"
"$GPGGA,132921.577,4438.81586,N,01136.74118,W,1,09,"
"##MN-00 00 35 0039 02307 3732 633869 256776 212"
"124.562928"
"$GPGGA,132923.577,4438.81564,N,01136.74232,W,1,09,"
"##MN-00 00 36 0039 02306 3731 633870 256776 212"
"124.562951"
"$GPGGA,132925.577,4438.81539,N,01136.74337,W,1,09,"
"##MN-00 00 34 0039 02302 3730 633864 256776 212"
"124.562975"
"$GPGGA,132927.577,4438.81525,N,01136.74452,W,1,09,"
"##MN-00 00 32 0039 02302 3729 633841 256771 212"
"124.562986"
"$GPGGA,132929.577,4438.81501,N,01136.74558,W,1,09,"
"##MN-00 00 35 0040 02304 3728 633850 256772 212"
"124.563009"
"$GPGGA,132930.577,4438.81489,N,01136.74607,W,1,09,"
"##MN-00 00 33 0040 02302 3727 633843 256771 212"
"124.563032"
"$GPGGA,132932.577,4438.81472,N,01136.74717,W,1,09,"
"##MN-00 00 32 0040 02307 3726 633838 256770 212"
"124.563056"
"$GPGGA,132934.577,4438.81453,N,01136.74836,W,1,09,"
"##MN-00 00 35 0041 02304 3725 633836 256769 212"
"124.563079"
"$GPGGA,132936.577,4438.81431,N,01136.74944,W,1,09,"
"##MN-00 00 33 0041 02303 3724 633831 256769 212"
"124.563102"
"$GPGGA,132938.577,4438.81418,N,01136.75047,W,1,09,"
"##MN-00 00 32 0041 02302 3722 633806 256763 212"
"124.563125"
"$GPGGA,132940.577,4438.81401,N,01136.75172,W,1,09,"
"##MN-00 00 33 0041 02307 3722 633795 256760 212"
"124.563137"
"$GPGGA,132942.577,4438.81381,N,01136.75290,W,1,09,"
"##MN-00 00 34 0042 02304 3720 633809 256763 212"
"124.56316"
"$GPGGA,132943.577,4438.81367,N,01136.75339,W,1,09,"
"##MN-00 00 33 0042 02299 3720 633806 256763 212"
"124.563183"
"$GPGGA,132945.577,4438.81345,N,01136.75438,W,1,09,"
"##MN-00 00 30 0042 02301 3719 633771 256758 212"
"124.563206"
"$GPGGA,132947.577,4438.81330,N,01136.75554,W,1,09,"
"##MN-00 00 34 0042 02306 3717 633785 256759 212"
"124.563229"
"$GPGGA,132949.577,4438.81307,N,01136.75676,W,1,09,"
"##MN-00 00 33 0043 02301 3716 633782 256758 212"
"124.563252"
"$GPGGA,132951.577,4438.81286,N,01136.75795,W,1,09,"
"##MN-00 00 33 0043 02300 3715 633779 256757 212"
"124.563275"
"$GPGGA,132953.577,4438.81272,N,01136.75902,W,1,09,"
"##MN-00 00 34 0043 02304 3714 633814 256764 212"
"124.563299"
"$GPGGA,132955.577,4438.81258,N,01136.76003,W,1,09,"
"##MN-00 00 33 0044 02301 3713 633799 256765 212"
"124.56331"
"$GPGGA,132957.577,4438.81234,N,01136.76128,W,1,09,"
"##MN-00 00 32 0044 02302 3712 633785 256762 212"
"124.563333"
"$GPGGA,132958.577,4438.81226,N,01136.76198,W,1,09,"
"##MN-00 00 32 0044 02304 3711 633821 256764 212"
"124.563356"
"$GPGGA,133000.577,4438.81205,N,01136.76325,W,1,09,"
"##MN-00 00 34 0044 02302 3710 633827 256767 212"
"124.56338"
"$GPGGA,133002.577,4438.81185,N,01136.76410,W,1,09,"
"##MN-00 00 32 0045 02293 3709 633801 256764 212"
"124.563403"
"$GPGGA,133004.577,4438.81166,N,01136.76515,W,1,09,"
"##MN-00 00 28 0045 02300 3707 633756 256754 212"
"124.563426"
"$GPGGA,133006.577,4438.81146,N,01136.76664,W,1,09,"
"##MN-00 00 33 0045 02302 3706 633766 256755 212"
"124.563449"
"$GPGGA,133008.577,4438.81129,N,01136.76797,W,1,09,"
"##MN-00 00 34 0046 02300 3705 633767 256756 212"
"124.563461"
"$GPGGA,133010.577,4438.81100,N,01136.76891,W,1,09,"
"##MN-00 00 34 0046 02290 3704 633769 256757 212"
"124.563484"
"$GPGGA,133011.577,4438.81089,N,01136.76942,W,1,09,"
"##MN-00 00 27 0046 02289 3703 633748 256757 212"
"124.563507"
"$GPGGA,133013.577,4438.81088,N,01136.77068,W,1,08,"
"##MN-00 00 18 0046 02307 3702 633755 256752 212"
"124.56353"
"$GPGGA,133015.577,4438.81075,N,01136.77197,W,1,09,"
"##MN-00 00 34 0046 02305 3701 633819 256767 212"
"124.563553"
"$GPGGA,133017.577,4438.81030,N,01136.77310,W,1,09,"
"##MN-00 00 35 0047 02308 3700 633839 256766 212"
"124.563576"
"$GPGGA,133019.577,4438.81007,N,01136.77442,W,1,08,"
"##MN-00 00 30 0047 02322 3699 633896 256764 212"
"124.5636"
"$GPGGA,133021.577,4438.81005,N,01136.77563,W,1,09,"
"##MN-00 00 37 0048 02324 3698 633967 256791 212"
"124.563623"
"$GPGGA,133023.577,4438.80994,N,01136.77672,W,1,09,"
"##MN-00 00 36 0048 02330 3697 634050 256802 212"
"124.563634"
"$GPGGA,133025.577,4438.80981,N,01136.77807,W,1,09,"
"##MN-00 00 32 0048 02338 3696 634161 256803 212"
"124.563657"
"$GPGGA,133026.577,4438.80969,N,01136.77875,W,1,09,"
"##MN-00 00 34 0048 02344 3695 634259 256840 212"
"124.563681"
"$GPGGA,133028.577,4438.80945,N,01136.78000,W,1,09,"
"##MN-00 00 37 0048 02345 3694 634252 256846 212"
"124.563704"
"$GPGGA,133030.577,4438.80932,N,01136.78128,W,1,09,"
"##MN-00 00 32 0048 02354 3693 634427 256845 212"
"124.563727"
"$GPGGA,133032.577,4438.80929,N,01136.78265,W,1,09,"
"##MN-00 00 32 0048 02367 3692 634594 256890 212"
"124.56375"
"$GPGGA,133034.577,4438.80914,N,01136.78391,W,1,09,"
"##MN-00 00 36 0049 02365 3691 634573 256905 212"
"124.563773"
"$GPGGA,133036.577,4438.80893,N,01136.78521,W,1,09,"
"##MN-00 00 33 0049 02374 3689 634865 256931 212"
"124.563785"
"$GPGGA,133038.577,4438.80870,N,01136.78655,W,1,09,"
"##MN-00 00 34 0049 02383 3688 635296 257015 212"
"124.563808"
"$GPGGA,133040.577,4438.80871,N,01136.78784,W,1,09,"
"##MN-00 00 37 0049 02384 3688 635411 257079 212"
"124.563831"
"$GPGGA,133041.577,4438.80870,N,01136.78859,W,1,09,"
"##MN-00 00 32 0049 02391 3686 635562 257073 212"
"124.563854"
"$GPGGA,133043.578,4438.80863,N,01136.78999,W,1,09,"
"##MN-00 00 29 0049 02402 3685 635598 257097 212"
"124.563877"
"$GPGGA,133045.578,4438.80845,N,01136.79111,W,1,09,"
"##MN-00 00 36 0050 02400 3684 635569 257106 212"
"124.5639"
"$GPGGA,133047.578,4438.80831,N,01136.79229,W,1,09,"
"##MN-00 00 31 0051 02403 3684 635633 257096 212"
"124.563924"
"$GPGGA,133049.578,4438.80818,N,01136.79383,W,1,09,"
"##MN-00 00 26 0052 02417 3682 635679 257082 212"
"124.563947"
"$GPGGA,133051.578,4438.80812,N,01136.79514,W,1,09,"
"##MN-00 00 34 0052 02419 3681 635717 257130 212"
"124.563958"
"$GPGGA,133053.578,4438.80802,N,01136.79620,W,1,09,"
"##MN-00 00 32 0052 02423 3680 635748 257132 212"
"124.563981"
"$GPGGA,133054.578,4438.80796,N,01136.79684,W,1,09,"
"##MN-00 00 28 0052 02434 3679 635994 257117 212"
"124.564005"
"$GPGGA,133056.578,4438.80785,N,01136.79843,W,1,09,"
"##MN-00 00 32 0052 02440 3678 636057 257189 212"
"124.564028"
"$GPGGA,133058.578,4438.80763,N,01136.79985,W,1,09,"
"##MN-00 00 33 0053 02434 3677 636031 257183 212"
"124.564051"
"$GPGGA,133100.578,4438.80762,N,01136.80102,W,1,09,"
"##MN-00 00 34 0053 02432 3676 636059 257201 212"
"124.564074"
"$GPGGA,133102.578,4438.80754,N,01136.80244,W,1,09,"
"##MN-00 00 36 0053 02433 3675 636057 257213 212"
"124.564097"
"$GPGGA,133104.578,4438.80731,N,01136.80406,W,1,09,"
"##MN-00 00 35 0054 02434 3674 636088 257221 212"
"124.56412"
"$GPGGA,133106.578,4438.80701,N,01136.80542,W,1,09,"
"##MN-00 00 36 0054 02430 3673 636063 257220 212"
"124.564132"
"$GPGGA,133108.578,4438.80697,N,01136.80669,W,1,09,"
"##MN-00 00 31 0054 02423 3672 636029 257215 212"
"124.564155"
"$GPGGA,133109.578,4438.80694,N,01136.80739,W,1,09,"
"##MN-00 00 29 0054 02429 3671 636035 257209 212"
"124.564178"
"$GPGGA,133111.578,4438.80677,N,01136.80887,W,1,09,"
"##MN-00 00 36 0055 02424 3669 636034 257214 212"
"124.564201"
"$GPGGA,133113.578,4438.80663,N,01136.81030,W,1,09,"
"##MN-00 00 33 0055 02426 3668 635937 257196 212"
"124.564225"
"$GPGGA,133115.578,4438.80646,N,01136.81168,W,1,09,"
"##MN-00 00 36 0056 02426 3667 635977 257204 212"
"124.564248"
"$GPGGA,133117.578,4438.80636,N,01136.81308,W,1,09,"
"##MN-00 00 34 0056 02419 3666 635965 257202 212"
"124.564271"
"$GPGGA,133119.578,4438.80617,N,01136.81461,W,1,09,"
"##MN-00 00 34 0056 02416 3665 635871 257190 212"
"124.564294"
"$GPGGA,133121.578,4438.80602,N,01136.81617,W,1,09,"
"##MN-00 00 32 0057 02422 3664 635752 257160 212"
"124.564306"
"$GPGGA,133123.578,4438.80575,N,01136.81739,W,1,09,"
"##MN-00 00 36 0057 02417 3663 635794 257170 212"
"124.564329"
"$GPGGA,133124.578,4438.80562,N,01136.81798,W,1,09,"
"##MN-00 00 35 0057 02409 3662 635769 257162 212"
"124.564352"
"$GPGGA,133126.578,4438.80547,N,01136.81960,W,1,09,"
"##MN-00 00 25 0058 02416 3661 635678 257159 212"
"124.564375"
"$GPGGA,133128.578,4438.80540,N,01136.82137,W,1,09,"
"##MN-00 00 34 0058 02415 3660 635698 257151 212"
"124.564398"
"$GPGGA,133130.578,4438.80532,N,01136.82262,W,1,09,"
"##MN-00 00 37 0059 02405 3659 635698 257151 212"
"124.564421"
"$GPGGA,133132.578,4438.80513,N,01136.82384,W,1,09,"
"##MN-00 00 32 0059 02404 3657 635649 257142 212"
"124.564444"
"$GPGGA,133134.578,4438.80485,N,01136.82542,W,1,09,"
"##MN-00 00 34 0059 02410 3656 635646 257139 212"
"124.564468"
"$GPGGA,133136.578,4438.80476,N,01136.82704,W,1,09,"
"##MN-00 00 38 0060 02405 3656 635651 257141 212"
"124.564479"
"$GPGGA,133138.578,4438.80462,N,01136.82856,W,1,09,"
"##MN-00 00 36 0060 02404 3654 635656 257142 212"
"124.564502"
"$GPGGA,133139.578,4438.80454,N,01136.82930,W,1,09,"
"##MN-00 00 36 0060 02404 3653 635652 257140 212"
"124.564525"
"$GPGGA,133141.578,4438.80437,N,01136.83060,W,1,09,"
"##MN-00 00 38 0061 02402 3652 635651 257141 212"
"124.564549"
"$GPGGA,133143.578,4438.80428,N,01136.83200,W,1,09,"
"##MN-00 00 35 0061 02397 3651 635644 257139 212"
"124.564572"
"$GPGGA,133145.578,4438.80413,N,01136.83369,W,1,09,"
"##MN-00 00 32 0061 02404 3650 635642 257138 212"
"124.564595"
"$GPGGA,133147.578,4438.80390,N,01136.83520,W,1,09,"
"##MN-00 00 39 0062 02399 3649 635646 257139 212"
"124.564618"
"$GPGGA,133149.578,4438.80373,N,01136.83643,W,1,09,"
"##MN-00 00 37 0062 02392 3648 635643 257140 212"
"124.56463"
"$GPGGA,133151.578,4438.80356,N,01136.83792,W,1,09,"
"##MN-00 00 33 0062 02394 3647 635611 257133 212"
"124.564653"
"$GPGGA,133153.578,4438.80335,N,01136.83956,W,1,09,"
"##MN-00 00 35 0063 02400 3646 635631 257136 212"
"124.564676"
"$GPGGA,133154.578,4438.80322,N,01136.84023,W,1,09,"
"##MN-00 00 40 0063 02393 3645 635625 257137 212"
"124.564699"
"$GPGGA,133156.578,4438.80309,N,01136.84146,W,1,09,"
"##MN-00 00 36 0064 02390 3644 635619 257135 212"
"124.564722"
"$GPGGA,133158.578,4438.80292,N,01136.84308,W,1,09,"
"##MN-00 00 38 0064 02392 3643 635622 257135 212"
"124.564745"
"$GPGGA,133200.578,4438.80253,N,01136.84469,W,1,09,"
"##MN-00 00 38 0064 02393 3642 635622 257136 212"
"124.564769"
"$GPGGA,133202.578,4438.80239,N,01136.84601,W,1,09,"
"##MN-00 00 38 0065 02384 3641 635616 257135 212"
"124.564792"
"$GPGGA,133204.578,4438.80219,N,01136.84742,W,1,09,"
"##MN-00 00 31 0065 02385 3640 635568 257128 212"
"124.564803"
"$GPGGA,133206.578,4438.80184,N,01136.84888,W,1,09,"
"##MN-00 00 37 0065 02389 3639 635589 257128 212"
"124.564826"
"$GPGGA,133208.578,4438.80149,N,01136.85024,W,1,09,"
"##MN-00 00 40 0066 02384 3638 635586 257130 212"
"124.56485"
"$GPGGA,133209.578,4438.80138,N,01136.85098,W,1,09,"
"##MN-00 00 35 0066 02384 3637 635567 257125 212"
"124.564873"
"$GPGGA,133211.578,4438.80115,N,01136.85255,W,1,09,"
"##MN-00 00 40 0067 02387 3635 635568 257125 212"
"124.564896"
"$GPGGA,133213.578,4438.80082,N,01136.85390,W,1,09,"
"##MN-00 00 40 0067 02379 3634 635565 257125 212"
"124.564919"
"$GPGGA,133215.578,4438.80053,N,01136.85510,W,1,09,"
"##MN-00 00 37 0067 02382 3633 635557 257124 212"
"124.564942"
"$GPGGA,133217.578,4438.80021,N,01136.85669,W,1,09,"
"##MN-00 00 39 0068 02382 3632 635556 257123 212"
"124.564965"
"$GPGGA,133219.578,4438.80004,N,01136.85844,W,1,09,"
"##MN-00 00 39 0068 02381 3631 635559 257123 212"
"124.564977"
"$GPGGA,133221.578,4438.79972,N,01136.85976,W,1,09,"
"##MN-00 00 39 0069 02378 3630 635559 257124 212"
"124.565"
"$GPGGA,133222.578,4438.79950,N,01136.86034,W,1,09,"
"##MN-00 00 37 0069 02373 3629 635547 257123 212"
"124.565023"
"$GPGGA,133224.578,4438.79920,N,01136.86165,W,1,09,"
"##MN-00 00 37 0069 02376 3628 635475 257108 212"
"124.565046"
"$GPGGA,133226.578,4438.79899,N,01136.86341,W,1,09,"
"##MN-00 00 38 0070 02378 3627 635531 257119 212"
"124.565069"
"$GPGGA,133228.578,4438.79864,N,01136.86508,W,1,09,"
"##MN-00 00 40 0070 02371 3626 635522 257119 212"
"124.565093"
"$GPGGA,133230.578,4438.79831,N,01136.86655,W,1,09,"
"##MN-00 00 36 0070 02367 3625 635482 257112 212"
"124.565116"
"$GPGGA,133232.578,4438.79805,N,01136.86796,W,1,09,"
"##MN-00 00 38 0071 02369 3624 635415 257096 212"
"124.565139"
"$GPGGA,133234.578,4438.79782,N,01136.86939,W,1,09,"
"##MN-00 00 39 0071 02365 3623 635428 257100 212"
"124.56515"
"$GPGGA,133236.578,4438.79758,N,01136.87108,W,1,09,"
"##MN-00 00 37 0072 02366 3622 635352 257087 212"
"124.565174"
"$GPGGA,133237.578,4438.79739,N,01136.87197,W,1,09,"
"##MN-00 00 40 0072 02365 3621 635350 257084 212"
"124.565197"
"$GPGGA,133239.578,4438.79690,N,01136.87356,W,1,09,"
"##MN-00 00 40 0073 02360 3620 635352 257086 212"
"124.56522"
"$GPGGA,133241.578,4438.79669,N,01136.87487,W,1,09,"
"##MN-00 00 37 0073 02358 3619 635142 257047 212"
"124.565243"
"$GPGGA,133243.578,4438.79642,N,01136.87623,W,1,09,"
"##MN-00 00 40 0073 02358 3618 635167 257042 212"
"124.565266"
"$GPGGA,133245.578,4438.79605,N,01136.87805,W,1,09,"
"##MN-00 00 39 0074 02356 3617 635151 257042 212"
"124.565289"
"$GPGGA,133247.578,4438.79577,N,01136.88001,W,1,09,"
"##MN-00 00 40 0074 02358 3616 635051 257027 212"
"124.565313"
"$GPGGA,133249.578,4438.79532,N,01136.88136,W,1,09,"
"##MN-00 00 41 0075 02350 3615 635077 257037 212"
"124.565324"
"$GPGGA,133251.578,4438.79490,N,01136.88249,W,1,09,"
"##MN-00 00 38 0075 02345 3614 634990 257018 212"
"124.565347"
"$GPGGA,133252.578,4438.79480,N,01136.88327,W,1,09,"
"##MN-00 00 33 0075 02352 3612 634748 256960 212"
"124.56537"
"$GPGGA,133254.578,4438.79461,N,01136.88513,W,1,09,"
"##MN-00 00 38 0076 02352 3612 634859 256989 212"
"124.565394"
"$GPGGA,133256.578,4438.79421,N,01136.88672,W,1,09,"
"##MN-00 00 43 0076 02347 3611 634842 256984 212"
"124.565417"
"$GPGGA,133258.578,4438.79376,N,01136.88819,W,1,09,"
"##MN-00 00 39 0077 02344 3610 634734 256961 212"
"124.56544"
"$GPGGA,133300.578,4438.79348,N,01136.88993,W,1,09,"
"##MN-00 00 40 0077 02345 3609 634629 256935 212"
"124.565463"
"$GPGGA,133302.578,4438.79325,N,01136.89153,W,1,09,"
"##MN-00 00 42 0078 02343 3608 634683 256947 212"
"124.565486"
"$GPGGA,133304.578,4438.79292,N,01136.89293,W,1,09,"
"##MN-00 00 40 0078 02340 3607 634661 256952 212"
"124.565498"
"$GPGGA,133306.578,4438.79254,N,01136.89463,W,1,09,"
"##MN-00 00 41 0079 02338 3606 634648 256954 212"
"124.565521"
"$GPGGA,133307.578,4438.79245,N,01136.89561,W,1,09,"
"##MN-00 00 39 0079 02339 3605 634534 256919 212"
"124.565544"
"$GPGGA,133309.578,4438.79215,N,01136.89732,W,1,09,"
"##MN-00 00 42 0079 02338 3604 634559 256920 212"
"124.565567"
"$GPGGA,133311.578,4438.79180,N,01136.89867,W,1,09,"
"##MN+00 00 43 0080 02328 3603 634544 256926 212"
"124.56559"
"$GPGGA,133313.578,4438.79160,N,01136.90032,W,1,09,"
"##MN+00 00 34 0080 02330 3602 634289 256879 212"
"124.565613"
"$GPGGA,133315.578,4438.79131,N,01136.90224,W,1,09,"
"##MN+00 00 40 0081 02332 3601 634313 256874 212"
"124.565637"
"$GPGGA,133317.578,4438.79093,N,01136.90383,W,1,09,"
"##MN-00 00 43 0081 02330 3600 634320 256876 212"
"124.56566"
"$GPGGA,133319.578,4438.79050,N,01136.90530,W,1,09,"
"##MN-00 00 42 0082 02326 3599 634294 256880 212"
"124.565671"
"$GPGGA,133321.578,4438.79032,N,01136.90704,W,1,09,"
"##MN+00 00 40 0082 02328 3598 634241 256856 212"
"124.565694"
"$GPGGA,133322.578,4438.79016,N,01136.90792,W,1,09,"
"##MN+00 00 48 0083 02325 3597 634257 256859 212"
"124.565718"
"$GPGGA,133324.578,4438.78975,N,01136.90964,W,1,09,"
"##MN+00 00 52 0083 02322 3596 634243 256860 212"
"124.565741"
"$GPGGA,133326.578,4438.78941,N,01136.91140,W,1,09,"
"##MN-00 00 53 0083 02326 3595 634220 256854 211"
"124.565764"
"$GPGGA,133328.578,4438.78914,N,01136.91301,W,1,09,"
"##MN-00 00 54 0084 02319 3594 634220 256858 212"
"124.565787"
"#increment_net"
"$GPGGA,133330.578,4438.78878,N,01136.91458,W,1,09,"
"##MN-00 00 52 0085 02314 3593 634206 256850 212"
"124.56581"
"$GPGGA,133332.578,4438.78845,N,01136.91639,W,1,09,"
"##MN-00 00 46 0085 02318 3592 634142 256837 212"
"124.565833"
"$GPGGA,133334.578,4438.78822,N,01136.91817,W,1,09,"
"##MN-00 00 46 0085 02317 3591 634162 256841 212"
"124.565845"
"$GPGGA,133336.578,4438.78790,N,01136.91966,W,1,09,"
"##MN-00 00 49 0086 02309 3590 634165 256843 212"
"124.565868"
"$GPGGA,133337.578,4438.78774,N,01136.92045,W,1,09,"
"##MN-00 00 45 0086 02309 3589 634124 256835 212"
"124.565891"
"$GPGGA,133339.578,4438.78739,N,01136.92228,W,1,09,"
"##MN-00 00 46 0087 02311 3588 634111 256830 212"
"124.565914"
"$GPGGA,133341.578,4438.78716,N,01136.92410,W,1,09,"
"##MN-00 00 48 0087 02308 3587 634116 256834 212"
"124.565938"
"$GPGGA,133343.578,4438.78690,N,01136.92577,W,1,09,"
"##MN-00 00 48 0088 02305 3586 634126 256837 212"
"124.565961"
"$GPGGA,133345.578,4438.78666,N,01136.92752,W,1,09,"
"##MN-00 00 46 0088 02304 3585 634112 256836 212"
"124.565984"
"$GPGGA,133347.578,4438.78635,N,01136.92929,W,1,09,"
"##MN-00 00 47 0089 02302 3584 634095 256839 212"
"124.566007"
"$GPGGA,133349.578,4438.78605,N,01136.93099,W,1,09,"
"##MN-00 00 48 0089 02295 3584 634068 256839 212"
"124.566019"
"$GPGGA,133351.578,4438.78572,N,01136.93277,W,1,09,"
"##MN-00 00 47 0090 02295 3582 634049 256831 212"
"124.566042"
"$GPGGA,133352.578,4438.78559,N,01136.93374,W,1,09,"
"##MN-00 00 48 0090 02293 3581 634028 256825 212"
"124.566065"
"$GPGGA,133354.578,4438.78538,N,01136.93568,W,1,09,"
"##MN-00 00 48 0090 02290 3581 634015 256817 212"
"124.566088"
"$GPGGA,133356.578,4438.78514,N,01136.93743,W,1,09,"
"##MN-00 00 48 0091 02290 3580 634003 256814 212"
"124.566111"
"$GPGGA,133358.578,4438.78474,N,01136.93918,W,1,09,"
"##MN-00 00 50 0091 02284 3579 634002 256811 212"
"124.566134"
"$GPGGA,133400.578,4438.78443,N,01136.94107,W,1,09,"
"##MN-00 00 46 0092 02285 3578 633982 256806 212"
"124.566157"
"$GPGGA,133402.578,4438.78422,N,01136.94291,W,1,09,"
"##MN-00 00 50 0092 02282 3577 633983 256807 212"
"124.566181"
"$GPGGA,133404.578,4438.78400,N,01136.94470,W,1,09,"
"##MN-00 00 50 0093 02279 3576 633990 256807 212"
"124.566192"
"$GPGGA,133406.578,4438.78370,N,01136.94650,W,1,08,"
"##MN-00 00 48 0093 02278 3575 633936 256797 212"
"124.566215"
"$GPGGA,133407.578,4438.78351,N,01136.94744,W,1,08,"
"##MN-00 00 50 0094 02278 3574 633887 256796 212"
"124.566238"
"$GPGGA,133409.578,4438.78316,N,01136.94932,W,1,09,"
"##MN-00 00 50 0094 02274 3573 633864 256789 212"
"124.566262"
"$GPGGA,133411.578,4438.78283,N,01136.95111,W,1,09,"
"##MN-00 00 51 0095 02273 3573 633844 256783 212"
"124.566285"
"$GPGGA,133413.578,4438.78263,N,01136.95287,W,1,09,"
"##MN-00 00 49 0095 02272 3572 633801 256778 212"
"124.566308"
"$GPGGA,133415.578,4438.78231,N,01136.95472,W,1,09,"
"##MN-00 00 51 0096 02268 3571 633764 256767 212"
"124.566331"
"$GPGGA,133417.578,4438.78197,N,01136.95667,W,1,09,"
"##MN-00 00 50 0096 02267 3570 633726 256761 212"
"124.566354"
"$GPGGA,133419.578,4438.78172,N,01136.95849,W,1,09,"
"##MN-00 00 51 0097 02268 3569 633721 256758 212"
"124.566366"
"$GPGGA,133421.578,4438.78136,N,01136.96020,W,1,09,"
"##MN-00 00 53 0097 02262 3568 633695 256754 212"
"124.566389"
"$GPGGA,133422.578,4438.78116,N,01136.96112,W,1,09,"
"##MN-00 00 51 0098 02262 3567 633660 256743 212"
"124.566412"
"$GPGGA,133424.578,4438.78089,N,01136.96304,W,1,09,"
"##MN-00 00 50 0098 02262 3566 633649 256742 212"
"124.566435"
"$GPGGA,133426.579,4438.78062,N,01136.96492,W,1,09,"
"##MN-00 00 52 0099 02259 3565 633645 256740 212"
"124.566458"
"$GPGGA,133428.579,4438.78031,N,01136.96679,W,1,09,"
"##MN-00 00 52 0099 02254 3564 633617 256735 212"
"124.566481"
"$GPGGA,133430.579,4438.78006,N,01136.96871,W,1,09,"
"##MN-00 00 51 0100 02255 3564 633557 256725 212"
"124.566505"
"$GPGGA,133432.579,4438.77975,N,01136.97051,W,1,09,"
"##MN-00 00 53 0100 02255 3563 633537 256723 212"
"124.566528"
"$GPGGA,133434.579,4438.77942,N,01136.97229,W,1,09,"
"##MN-00 00 50 0101 02253 3562 633518 256716 212"
"124.566539"
"$GPGGA,133436.579,4438.77902,N,01136.97418,W,1,09,"
"##MN-00 00 51 0101 02250 3561 633514 256713 212"
"124.566562"
"$GPGGA,133437.579,4438.77887,N,01136.97515,W,1,09,"
"##MN-00 00 52 0102 02246 3560 633520 256716 212"
"124.566586"
"$GPGGA,133439.579,4438.77863,N,01136.97713,W,1,09,"
"##MN-00 00 52 0102 02247 3559 633528 256717 212"
"124.566609"
"$GPGGA,133441.579,4438.77833,N,01136.97897,W,1,09,"
"##MN-00 00 51 0103 02247 3558 633501 256713 212"
"124.566632"
"$GPGGA,133443.579,4438.77793,N,01136.98067,W,1,09,"
"##MN-00 00 53 0103 02245 3557 633471 256711 212"
"124.566655"
"$GPGGA,133445.579,4438.77761,N,01136.98261,W,1,09,"
"##MN-00 00 51 0104 02242 3557 633451 256704 212"
"124.566678"
"$GPGGA,133447.579,4438.77736,N,01136.98460,W,1,09,"
"##MN-00 00 51 0104 02247 3556 633425 256691 212"
"124.566701"
"$GPGGA,133449.579,4438.77691,N,01136.98622,W,1,09,"
"##MN-00 00 56 0105 02237 3555 633425 256692 212"
"124.566713"
"$GPGGA,133451.579,4438.77649,N,01136.98791,W,1,09,"
"##MN-00 00 51 0105 02237 3554 633392 256689 212"
"124.566736"
"$GPGGA,133452.579,4438.77638,N,01136.98883,W,1,09,"
"##MN-00 00 49 0106 02243 3553 633361 256686 212"
"124.566759"
"$GPGGA,133454.579,4438.77609,N,01136.99059,W,1,09,"
"##MN-00 00 59 0106 02239 3552 633377 256684 212"
"124.566782"
"$GPGGA,133456.579,4438.77564,N,01136.99224,W,1,09,"
"##MN-00 00 49 0107 02239 3551 633365 256678 212"
"124.566806"
"$GPGGA,133458.579,4438.77533,N,01136.99385,W,1,09,"
"##MN-00 00 52 0107 02243 3550 633318 256671 212"
"124.566829"
"$GPGGA,133500.579,4438.77512,N,01136.99523,W,1,09,"
"##MN-00 00 56 0108 02237 3550 633337 256675 212"
"124.566852"
"$GPGGA,133502.579,4438.77467,N,01136.99667,W,1,09,"
"##MN-00 00 50 0108 02241 3549 633355 256677 212"
"124.566875"
"$GPGGA,133504.579,4438.77432,N,01136.99853,W,1,09,"
"##MN-00 00 54 0108 02242 3548 633367 256681 212"
"124.566887"
"$GPGGA,133506.579,4438.77417,N,01137.00018,W,1,09,"
"##MN-00 00 55 0109 02244 3547 633394 256681 212"
"124.56691"
"$GPGGA,133507.579,4438.77407,N,01137.00086,W,1,09,"
"##MN-00 00 55 0109 02241 3546 633408 256684 212"
"124.566933"
"$GPGGA,133509.579,4438.77370,N,01137.00215,W,1,09,"
"##MN-00 00 54 0110 02242 3545 633419 256686 212"
"124.566956"
"$GPGGA,133511.579,4438.77332,N,01137.00380,W,1,09,"
"##MN-00 00 55 0110 02245 3544 633430 256689 212"
"124.566979"
"$GPGGA,133513.579,4438.77312,N,01137.00570,W,1,09,"
"##MN-00 00 52 0110 02249 3544 633591 256727 212"
"124.567002"
"$GPGGA,133515.579,4438.77268,N,01137.00710,W,1,09,"
"##MN-00 00 57 0111 02246 3543 633572 256728 212"
"124.567025"
"$GPGGA,133517.579,4438.77227,N,01137.00835,W,1,09,"
"##MN-00 00 57 0111 02241 3542 633613 256734 212"
"124.567037"
"$GPGGA,133519.579,4438.77209,N,01137.01010,W,1,09,"
"##MN-00 00 50 0112 02248 3541 633579 256726 212"
"124.56706"
"$GPGGA,133521.579,4438.77169,N,01137.01170,W,1,09,"
"##MN-00 00 55 0112 02248 3540 633631 256739 212"
"124.567083"
"$GPGGA,133522.579,4438.77144,N,01137.01233,W,1,09,"
"##MN-00 00 56 0113 02243 3540 633651 256737 212"
"124.567106"
"$GPGGA,133524.579,4438.77111,N,01137.01372,W,1,09,"
"##MN-00 00 51 0113 02246 3539 633631 256731 212"
"124.56713"
"$GPGGA,133526.579,4438.77073,N,01137.01537,W,1,09,"
"##MN-00 00 52 0113 02248 3538 633633 256733 212"
"124.567153"
"$GPGGA,133528.579,4438.77033,N,01137.01687,W,1,09,"
"##MN-00 00 55 0114 02248 3537 633634 256732 212"
"124.567176"
"$GPGGA,133530.579,4438.76991,N,01137.01817,W,1,09,"
"##MN-00 00 53 0114 02245 3537 633635 256731 212"
"124.567199"
"$GPGGA,133532.579,4438.76968,N,01137.01978,W,1,09,"
"##MN-00 00 51 0115 02249 3536 633551 256714 212"
"124.567211"
"$GPGGA,133534.579,4438.76932,N,01137.02139,W,1,09,"
"##MN-00 00 54 0115 02251 3535 633582 256722 212"
"124.567234"
"$GPGGA,133536.579,4438.76890,N,01137.02282,W,1,09,"
"##MN-00 00 53 0116 02247 3534 633603 256723 212"
"124.567257"
"$GPGGA,133537.579,4438.76871,N,01137.02352,W,1,09,"
"##MN-00 00 54 0116 02247 3533 633620 256726 212"
"124.56728"
"$GPGGA,133539.579,4438.76827,N,01137.02515,W,1,09,"
"##MN-00 00 53 0117 02245 3533 633633 256730 212"
"124.567303"
"$GPGGA,133541.579,4438.76800,N,01137.02687,W,1,09,"
"##MN-00 00 52 0117 02250 3532 633659 256740 212"
"124.567326"
"$GPGGA,133543.579,4438.76774,N,01137.02831,W,1,09,"
"##MN-00 00 55 0117 02250 3531 633663 256737 212"
"124.56735"
"$GPGGA,133545.579,4438.76736,N,01137.02962,W,1,09,"
"##MN-00 00 54 0118 02247 3530 633673 256738 212"
"124.567373"
"$GPGGA,133547.579,4438.76687,N,01137.03134,W,1,09,"
"##MN-00 00 54 0118 02247 3529 633671 256739 212"
"124.567384"
"$GPGGA,133549.579,4438.76662,N,01137.03323,W,1,09,"
"##MN-00 00 52 0119 02250 3528 633666 256739 212"
"124.567407"
"$GPGGA,133551.579,4438.76645,N,01137.03460,W,1,09,"
"##MN-00 00 54 0119 02250 3528 633667 256739 212"
"124.567431"
"$GPGGA,133552.579,4438.76627,N,01137.03518,W,1,09,"
"##MN-00 00 59 0120 02245 3527 633672 256741 212"
"124.567454"
"$GPGGA,133554.579,4438.76587,N,01137.03677,W,1,09,"
"##MN-00 00 45 0120 02249 3526 633645 256738 212"
"124.567477"
"$GPGGA,133556.579,4438.76546,N,01137.03858,W,1,09,"
"##MN-00 00 52 0120 02251 3525 633657 256739 212"
"124.5675"
"$GPGGA,133558.579,4438.76518,N,01137.03992,W,1,09,"
"##MN-00 00 56 0121 02248 3525 633664 256740 212"
"124.567523"
"$GPGGA,133600.579,4438.76487,N,01137.04111,W,1,09,"
"##MN-00 00 50 0121 02249 3524 633651 256739 212"
"124.567546"
"$GPGGA,133602.579,4438.76460,N,01137.04280,W,1,09,"
"##MN-00 00 52 0122 02251 3523 633633 256732 212"
"124.567558"
"$GPGGA,133604.579,4438.76428,N,01137.04448,W,1,09,"
"##MN-00 00 54 0122 02253 3522 633646 256734 212"
"124.567581"
"$GPGGA,133605.579,4438.76412,N,01137.04515,W,1,09,"
"##MN-00 00 54 0123 02250 3521 633653 256734 212"
"124.567604"
"$GPGGA,133607.579,4438.76382,N,01137.04643,W,1,09,"
"##MN-00 00 55 0123 02249 3521 633658 256734 212"
"124.567627"
"$GPGGA,133609.579,4438.76353,N,01137.04792,W,1,09,"
"##MN-00 00 52 0123 02251 3520 633661 256738 212"
"124.56765"
"$GPGGA,133611.579,4438.76328,N,01137.04964,W,1,09,"
"##MN-00 00 53 0124 02256 3519 633662 256740 212"
"124.567674"
"$GPGGA,133613.579,4438.76277,N,01137.05112,W,1,09,"
"##MN-00 00 56 0124 02251 3519 633675 256739 212"
"124.567697"
"$GPGGA,133615.579,4438.76256,N,01137.05252,W,1,09,"
"##MN-00 00 54 0125 02249 3518 633712 256748 212"
"124.56772"
"$GPGGA,133617.579,4438.76238,N,01137.05418,W,1,09,"
